City_ID,City,Latitude,Longitude,Temperature,Humidity,Cloudiness,Wind Speed,Country,Date
0,Kahului,20.8947,-156.47,28.01,71,40,5.14,US,1970-01-01 00:00:01.682124339
1,Hobart,-42.8794,147.3294,18.92,65,75,8.75,AU,1970-01-01 00:00:01.682124069
2,Mataura,-46.1927,168.8643,15.71,70,94,1.65,NZ,1970-01-01 00:00:01.682124340
3,Avera,33.194,-82.5271,21.97,58,100,2.95,US,1970-01-01 00:00:01.682124340
4,Rikitea,-23.1203,-134.9692,26.05,81,100,7.78,PF,1970-01-01 00:00:01.682124311
5,Upernavik,72.7868,-56.1549,-5.02,76,100,3.46,GL,1970-01-01 00:00:01.682124341
6,Arraial Do Cabo,-22.9661,-42.0278,21.83,74,1,1.42,BR,1970-01-01 00:00:01.682124342
7,Kenai,60.5544,-151.2583,12.05,49,0,5.14,US,1970-01-01 00:00:01.682124342
8,Punta Arenas,-53.15,-70.9167,5.06,75,40,5.66,CL,1970-01-01 00:00:01.682124298
9,Cape Town,-33.9258,18.4232,13.28,75,75,1.54,ZA,1970-01-01 00:00:01.682124266
10,Koslan,63.4564,48.8989,-1.14,94,99,2.64,RU,1970-01-01 00:00:01.682124344
11,Ushuaia,-54.8,-68.3,4.81,65,40,4.12,AR,1970-01-01 00:00:01.682124344
12,Sechura,-5.5569,-80.8222,26.32,79,100,4.23,PE,1970-01-01 00:00:01.682124345
13,Lazaro Cardenas,17.9583,-102.2,25.99,69,12,4.55,MX,1970-01-01 00:00:01.682124346
14,Vaini,-21.2,-175.2,27.09,69,20,4.12,TO,1970-01-01 00:00:01.682124346
15,Castro,-24.7911,-50.0119,10.34,99,30,3.07,BR,1970-01-01 00:00:01.682124242
16,Lofthus,59.9468,10.8018,7.12,84,12,1.59,NO,1970-01-01 00:00:01.682124347
17,Mongu,-15.2484,23.1274,19.47,68,100,0.88,ZM,1970-01-01 00:00:01.682124348
18,Antsohihy,-14.8796,47.9875,22.71,93,18,0.93,MG,1970-01-01 00:00:01.682124349
19,Salalah,17.0151,54.0924,28.05,69,75,1.54,OM,1970-01-01 00:00:01.682124349
20,Meulaboh,4.1363,96.1285,26.46,85,9,1.34,ID,1970-01-01 00:00:01.682124350
21,Kapaa,22.0752,-159.319,27.99,79,0,3.6,US,1970-01-01 00:00:01.682124351
22,La Libertad,-2.2333,-80.9,26.51,77,100,2.27,EC,1970-01-01 00:00:01.682124219
23,Caarapo,-22.6342,-54.8222,13.42,90,0,2.58,BR,1970-01-01 00:00:01.682124352
24,Amapa,1.0,-52.0,23.39,99,100,1.28,BR,1970-01-01 00:00:01.682124353
25,Narsaq,60.9167,-46.05,9.12,69,11,2.61,GL,1970-01-01 00:00:01.682124353
26,Bengkulu,-3.8004,102.2655,25.76,85,93,1.61,ID,1970-01-01 00:00:01.682124354
27,Cayenne,4.9333,-52.3333,24.02,100,75,1.54,GF,1970-01-01 00:00:01.682124080
28,Balod,20.73,81.2047,25.72,46,2,2.51,IN,1970-01-01 00:00:01.682124355
29,Wagar,16.1525,36.2032,26.07,41,0,4.76,SD,1970-01-01 00:00:01.682124356
30,Ancud,-41.8697,-73.8203,10.11,83,0,1.71,CL,1970-01-01 00:00:01.682124356
31,Klaksvik,62.2266,-6.589,6.51,91,100,10.12,FO,1970-01-01 00:00:01.682124357
32,Hofn,64.2539,-15.2082,1.55,59,3,5.34,IS,1970-01-01 00:00:01.682124358
33,Haifa,32.8156,34.9892,14.6,71,28,3.58,IL,1970-01-01 00:00:01.682124358
34,Buraydah,26.326,43.975,21.25,47,10,3.72,SA,1970-01-01 00:00:01.682124359
35,Palamos,41.8484,3.1291,15.62,54,100,3.58,ES,1970-01-01 00:00:01.682124359
36,Yandyki,45.7691,47.1258,11.72,77,100,3.97,RU,1970-01-01 00:00:01.682124360
37,Lakatoro,-16.0999,167.4164,29.31,67,10,3.62,VU,1970-01-01 00:00:01.682124361
38,New Norfolk,-42.7826,147.0587,19.72,70,100,1.79,AU,1970-01-01 00:00:01.682124362
39,Ambilobe,-13.2,49.05,22.33,93,33,1.65,MG,1970-01-01 00:00:01.682124362
40,Lincoln,40.8,-96.667,7.32,48,99,7.6,US,1970-01-01 00:00:01.682124151
41,Bluff,-46.6,168.3333,14.1,86,97,6.74,NZ,1970-01-01 00:00:01.682124364
42,Broken Hill,-31.95,141.4333,19.31,44,0,5.19,AU,1970-01-01 00:00:01.682124364
43,Madimba,-10.4,40.3333,25.62,94,20,5.66,TZ,1970-01-01 00:00:01.682124365
44,Kisangani,0.5167,25.2,21.4,99,100,1.56,CD,1970-01-01 00:00:01.682124366
45,Bezhetsk,57.7851,36.6965,4.2,90,26,2.31,RU,1970-01-01 00:00:01.682124366
46,Atuona,-9.8,-139.0333,27.46,75,5,5.09,PF,1970-01-01 00:00:01.682124312
47,Ponta Do Sol,32.6667,-17.1,17.35,71,97,1.74,PT,1970-01-01 00:00:01.682124368
48,Hithadhoo,-0.6,73.0833,29.1,73,53,4.33,MV,1970-01-01 00:00:01.682124369
49,Cabedelo,-6.9811,-34.8339,26.37,74,100,5.52,BR,1970-01-01 00:00:01.682124371
50,Stara Vyzhivka,51.4376,24.44,9.29,69,100,1.87,UA,1970-01-01 00:00:01.682124371
51,Vitim,59.4511,112.5578,-1.9,75,73,2.3,RU,1970-01-01 00:00:01.682124372
52,Ribeira Grande,38.5167,-28.7,16.48,92,96,8.83,PT,1970-01-01 00:00:01.682124373
53,Georgetown,5.4112,100.3354,28.96,83,20,2.06,MY,1970-01-01 00:00:01.682124173
54,Hermanus,-34.4187,19.2345,12.11,66,100,3.41,ZA,1970-01-01 00:00:01.682124374
55,Ondjiva,-17.0667,15.7333,15.57,92,100,1.87,AO,1970-01-01 00:00:01.682124375
56,Carnarvon,-24.8667,113.6333,25.17,35,0,5.44,AU,1970-01-01 00:00:01.682124375
57,Portland,45.5234,-122.6762,14.6,61,100,1.54,US,1970-01-01 00:00:01.682124365
58,Kasongo-Lunda,-6.4667,16.8167,21.26,98,100,0.53,CD,1970-01-01 00:00:01.682124377
59,Vostok,46.4856,135.8833,0.77,77,100,4.47,RU,1970-01-01 00:00:01.682124377
60,Kavieng,-2.5744,150.7967,29.73,71,27,4.75,PG,1970-01-01 00:00:01.682124378
61,Bilibino,68.0546,166.4372,0.78,72,6,0.77,RU,1970-01-01 00:00:01.682124379
62,Aksarka,66.5606,67.7975,-10.35,95,98,2.14,RU,1970-01-01 00:00:01.682124379
63,Severo-Kurilsk,50.6789,156.125,0.78,97,77,6.12,RU,1970-01-01 00:00:01.682124380
64,Kargasok,59.0556,80.8572,-0.14,78,100,3.42,RU,1970-01-01 00:00:01.682124381
65,Parana,-31.732,-60.5238,18.62,89,100,3.6,AR,1970-01-01 00:00:01.682124382
66,Bonthe,7.5264,-12.505,26.99,79,100,3.51,SL,1970-01-01 00:00:01.682124383
67,Longyearbyen,78.2186,15.6401,-14.09,56,20,5.14,SJ,1970-01-01 00:00:01.682124383
68,Hope,33.6671,-93.5916,24.03,62,3,2.69,US,1970-01-01 00:00:01.682124384
69,Inhambane,-23.865,35.3833,20.92,86,72,2.03,MZ,1970-01-01 00:00:01.682124385
70,Port Alfred,-33.5906,26.891,13.99,91,100,3.76,ZA,1970-01-01 00:00:01.682124385
71,Husavik,66.0449,-17.3389,-1.26,73,50,2.48,IS,1970-01-01 00:00:01.682124386
72,Bambous Virieux,-20.3428,57.7575,25.14,83,40,2.57,MU,1970-01-01 00:00:01.682124388
73,Hilo,19.7297,-155.09,29.04,73,75,7.2,US,1970-01-01 00:00:01.682124389
74,Goderich,43.7501,-81.7165,8.28,93,100,0.51,CA,1970-01-01 00:00:01.682124222
75,Suseni,46.6667,25.55,2.72,93,89,1.39,RO,1970-01-01 00:00:01.682124390
76,Smithers,54.7804,-127.1743,10.18,37,75,0.0,CA,1970-01-01 00:00:01.682124392
77,Olinda,-8.0089,-34.8553,27.85,69,40,4.12,BR,1970-01-01 00:00:01.682124393
78,Geraldton,-28.7667,114.6,20.23,42,58,3.6,AU,1970-01-01 00:00:01.682124393
79,Baruun-Urt,46.6806,113.2792,-0.11,16,4,5.0,MN,1970-01-01 00:00:01.682124394
80,Grand Gaube,-20.0064,57.6608,25.22,79,1,0.89,MU,1970-01-01 00:00:01.682124395
81,Ontario,34.0633,-117.6509,32.25,23,0,7.2,US,1970-01-01 00:00:01.682124396
82,Dikson,73.5069,80.5464,-5.07,85,99,7.38,RU,1970-01-01 00:00:01.682124397
83,San Angelo,31.4638,-100.437,27.12,11,0,4.12,US,1970-01-01 00:00:01.682124397
84,Busselton,-33.65,115.3333,18.54,48,0,4.53,AU,1970-01-01 00:00:01.682124398
85,Salto,-31.3833,-57.9667,17.71,71,100,1.34,UY,1970-01-01 00:00:01.682124399
86,Chokurdakh,70.6333,147.9167,-0.71,94,93,3.17,RU,1970-01-01 00:00:01.682124400
87,Urumqi,43.801,87.6005,6.53,42,0,2.0,CN,1970-01-01 00:00:01.682124400
88,Yellowknife,62.456,-114.3525,5.29,48,75,4.63,CA,1970-01-01 00:00:01.682124401
89,Sheridan,44.8333,-106.9173,2.21,61,100,6.69,US,1970-01-01 00:00:01.682124401
90,Saryozek,44.3583,77.9753,1.52,37,5,1.8,KZ,1970-01-01 00:00:01.682124402
91,Vardo,70.3705,31.1107,-2.01,69,100,2.57,NO,1970-01-01 00:00:01.682124403
92,Pevek,69.7008,170.3133,-2.79,65,8,0.14,RU,1970-01-01 00:00:01.682124403
93,Marawi,7.9986,124.2928,26.04,71,44,1.1,PH,1970-01-01 00:00:01.682124404
94,Zhigansk,66.7697,123.3711,-8.71,80,65,0.78,RU,1970-01-01 00:00:01.682124404
95,Narok,-1.0783,35.8601,14.6,96,100,1.34,KE,1970-01-01 00:00:01.682124405
96,East London,-33.0153,27.9116,16.46,68,100,2.32,ZA,1970-01-01 00:00:01.682124405
97,Port Huron,42.9709,-82.4249,10.48,82,100,1.03,US,1970-01-01 00:00:01.682124207
98,Albany,42.6001,-73.9662,21.23,71,57,5.45,US,1970-01-01 00:00:01.682124406
99,Hailar,49.2,119.7,1.6,19,0,6.99,CN,1970-01-01 00:00:01.682124407
100,Saldanha,-33.0117,17.9442,13.03,60,100,2.11,ZA,1970-01-01 00:00:01.682124407
101,Jamestown,42.097,-79.2353,15.8,75,0,3.6,US,1970-01-01 00:00:01.682124300
102,Gorontalo,0.5412,123.0595,30.01,69,82,0.1,ID,1970-01-01 00:00:01.682124408
103,Karpathos,35.507,27.2132,15.98,82,100,0.51,GR,1970-01-01 00:00:01.682124409
104,Berkak,62.825,10.0118,2.52,84,3,1.24,NO,1970-01-01 00:00:01.682124410
105,Yilan,24.757,121.753,25.01,99,97,1.66,TW,1970-01-01 00:00:01.682124410
106,Mahebourg,-20.4081,57.7,25.16,83,40,2.57,MU,1970-01-01 00:00:01.682124411
107,Minot,48.2325,-101.2963,1.68,60,0,10.29,US,1970-01-01 00:00:01.682124411
108,Guerrero,17.6667,-100.0,26.33,50,31,1.95,MX,1970-01-01 00:00:01.682124412
109,Pandan,14.0453,124.1694,29.37,70,98,1.69,PH,1970-01-01 00:00:01.682124412
110,Nkayi,-4.1841,13.2884,22.76,97,90,0.37,CG,1970-01-01 00:00:01.682124413
111,Provideniya,64.3833,-173.3,1.22,91,10,1.07,RU,1970-01-01 00:00:01.682124413
112,Thompson,55.7435,-97.8558,3.09,41,20,7.2,CA,1970-01-01 00:00:01.682124414
113,Balatonfured,46.9619,17.8719,11.86,59,92,0.89,HU,1970-01-01 00:00:01.682124414
114,Lensk,60.7253,114.9278,-0.44,56,10,2.15,RU,1970-01-01 00:00:01.682124415
115,Am Timan,11.0297,20.2827,32.14,20,99,0.78,TD,1970-01-01 00:00:01.682124415
116,Barrow,71.2906,-156.7887,-10.99,79,40,9.26,US,1970-01-01 00:00:01.682124416
117,Linguere,15.3953,-15.1193,26.12,57,0,4.12,SN,1970-01-01 00:00:01.682124416
118,Mattru,7.6244,-11.8332,25.81,80,84,1.21,SL,1970-01-01 00:00:01.682124417
119,Vila Franca Do Campo,37.7167,-25.4333,16.23,88,99,5.99,PT,1970-01-01 00:00:01.682124418
120,San Patricio,28.017,-97.5169,26.97,63,62,3.66,US,1970-01-01 00:00:01.682124418
121,Araouane,18.9048,-3.5265,25.86,12,100,4.36,ML,1970-01-01 00:00:01.682124419
122,Richards Bay,-28.783,32.0377,19.05,73,100,1.74,ZA,1970-01-01 00:00:01.682124419
123,Saint-Louis,16.3333,-15.0,22.8,37,42,4.34,SN,1970-01-01 00:00:01.682124420
124,Matata,-37.8833,176.75,21.03,95,100,6.76,NZ,1970-01-01 00:00:01.682124420
125,Winona,43.9666,-91.7668,3.32,87,75,1.54,US,1970-01-01 00:00:01.682124421
126,Cienfuegos,22.1461,-80.4356,24.08,83,100,1.54,CU,1970-01-01 00:00:01.682124422
127,Tosham,28.8833,75.9167,23.77,28,0,2.56,IN,1970-01-01 00:00:01.682124423
128,Baoding,38.8511,115.4903,5.76,88,100,2.56,CN,1970-01-01 00:00:01.682124424
129,Bethel,41.3712,-73.414,13.05,70,0,3.6,US,1970-01-01 00:00:01.682124424
130,Miri,4.4148,114.0089,28.08,89,20,2.57,MY,1970-01-01 00:00:01.682124425
131,Aklavik,68.2191,-135.0107,-4.8,93,100,5.88,CA,1970-01-01 00:00:01.682124426
132,Qasigiannguit,68.8193,-51.1922,-0.86,88,93,2.22,GL,1970-01-01 00:00:01.682124426
133,Fairbanks,64.8378,-147.7164,5.98,47,100,1.54,US,1970-01-01 00:00:01.682124355
134,Cabo San Lucas,22.8909,-109.9124,30.61,32,75,4.12,MX,1970-01-01 00:00:01.682124230
135,Mao,39.8885,4.2658,14.31,100,0,3.09,ES,1970-01-01 00:00:01.682124428
136,Souillac,-20.5167,57.5167,25.21,83,40,2.57,MU,1970-01-01 00:00:01.682124428
137,Constitucion,-35.3333,-72.4167,12.87,93,30,3.57,CL,1970-01-01 00:00:01.682124406
138,Trapani,37.8333,12.6667,12.93,87,0,1.54,IT,1970-01-01 00:00:01.682124430
139,Salym,60.0625,71.4789,1.04,95,99,2.78,RU,1970-01-01 00:00:01.682124430
140,Shirokiy,49.758,129.523,3.88,48,97,6.19,RU,1970-01-01 00:00:01.682124431
141,Umm Lajj,25.0213,37.2685,24.45,68,93,2.95,SA,1970-01-01 00:00:01.682124431
142,Lasa,46.6166,10.7002,8.49,88,100,0.88,IT,1970-01-01 00:00:01.682124432
143,Dalvik,65.9702,-18.5286,-0.04,81,87,1.69,IS,1970-01-01 00:00:01.682124432
144,Obo,5.3998,26.4869,22.91,77,100,2.97,CF,1970-01-01 00:00:01.682124433
145,Taltal,-25.4,-70.4833,18.81,80,100,2.08,CL,1970-01-01 00:00:01.682124374
146,Tuktoyaktuk,69.4541,-133.0374,-11.0,79,100,7.2,CA,1970-01-01 00:00:01.682124434
147,Kikwit,-5.041,18.8162,21.56,94,100,1.17,CD,1970-01-01 00:00:01.682124434
148,Longa,2.8447,24.6776,22.09,98,100,2.08,CD,1970-01-01 00:00:01.682124435
149,Qaanaaq,77.484,-69.3632,-10.15,78,100,2.17,GL,1970-01-01 00:00:01.682124436
150,Honningsvag,70.9821,25.9704,-2.14,54,75,8.23,NO,1970-01-01 00:00:01.682124436
151,Mikhaylovka,50.06,43.2379,5.39,92,100,3.77,RU,1970-01-01 00:00:01.682124437
152,Tarnow,50.0138,20.987,6.51,67,93,1.32,PL,1970-01-01 00:00:01.682124438
153,Tarrega,41.647,1.1396,14.22,74,98,3.59,ES,1970-01-01 00:00:01.682124438
154,Kozlovka,55.8428,48.2492,7.96,74,100,1.1,RU,1970-01-01 00:00:01.682124439
155,Luxor,25.6989,32.6421,22.03,20,0,1.54,EG,1970-01-01 00:00:01.682124244
156,Colares,38.7992,-9.4469,16.08,90,49,7.6,PT,1970-01-01 00:00:01.682124440
157,Dengfeng,34.4553,113.0281,3.46,90,100,2.21,CN,1970-01-01 00:00:01.682124440
158,Nome,64.5011,-165.4064,2.31,74,0,1.54,US,1970-01-01 00:00:01.682124441
159,Lebu,-37.6167,-73.65,12.34,93,33,3.92,CL,1970-01-01 00:00:01.682124442
160,Cobh,51.8572,-8.2992,7.58,93,75,3.6,IE,1970-01-01 00:00:01.682124443
161,Butaritari,3.0707,172.7902,28.28,78,24,4.67,KI,1970-01-01 00:00:01.682124443
162,Olafsvik,64.8945,-23.7142,1.24,72,12,6.83,IS,1970-01-01 00:00:01.682124444
163,Ixtapa,20.7,-105.2,25.57,73,75,6.17,MX,1970-01-01 00:00:01.682124444
164,Pangnirtung,66.1451,-65.7125,-5.0,93,100,2.57,CA,1970-01-01 00:00:01.682124445
165,Casablanca,33.5928,-7.6192,14.01,79,100,1.6,MA,1970-01-01 00:00:01.682124312
166,Chapais,49.7834,-74.8492,0.88,98,100,4.32,CA,1970-01-01 00:00:01.682124446
167,Wichita Falls,33.9137,-98.4934,22.08,14,0,3.09,US,1970-01-01 00:00:01.682124447
168,Kelvington,52.1667,-103.5343,-0.64,79,100,4.68,CA,1970-01-01 00:00:01.682124260
169,Aksu,41.1231,80.2644,10.18,50,68,0.88,CN,1970-01-01 00:00:01.682124448
170,Praia Da Vitoria,38.7333,-27.0667,17.14,88,40,8.26,PT,1970-01-01 00:00:01.682124448
171,Pingzhuang,42.0372,119.2889,11.57,29,0,3.72,CN,1970-01-01 00:00:01.682124449
172,Honolulu,21.3069,-157.8583,29.58,75,20,7.2,US,1970-01-01 00:00:01.682124194
173,Esperance,-33.8667,121.9,19.86,37,39,3.63,AU,1970-01-01 00:00:01.682124450
174,Hokitika,-42.7167,170.9667,16.54,86,58,4.25,NZ,1970-01-01 00:00:01.682124450
175,Heinola,61.2056,26.0381,3.33,94,11,1.15,FI,1970-01-01 00:00:01.682124451
176,Fujin,47.26,132.0322,7.54,36,99,8.17,CN,1970-01-01 00:00:01.682124451
177,Ashington,50.9331,-0.3909,7.12,85,100,1.66,GB,1970-01-01 00:00:01.682124453
178,Victor Harbor,-35.5667,138.6167,19.93,59,0,1.54,AU,1970-01-01 00:00:01.682124453
179,Bexhill,-28.7667,153.35,19.12,85,99,0.89,AU,1970-01-01 00:00:01.682124454
180,Taksimo,56.3444,114.8794,-4.17,42,19,0.73,RU,1970-01-01 00:00:01.682124454
181,Quatre Cocos,-20.2078,57.7625,25.06,78,6,4.85,MU,1970-01-01 00:00:01.682124455
182,Yarada,17.65,83.2667,27.18,100,40,1.03,IN,1970-01-01 00:00:01.682124455
183,Bacolod,10.6667,122.95,29.98,67,57,1.72,PH,1970-01-01 00:00:01.682124456
184,Teya,60.3778,92.6267,-4.24,92,91,0.74,RU,1970-01-01 00:00:01.682124456
185,Tuatapere,-46.1333,167.6833,17.05,65,71,1.63,NZ,1970-01-01 00:00:01.682124457
186,Bairiki,1.3292,172.9752,31.0,70,20,3.6,KI,1970-01-01 00:00:01.682124457
187,Turinsk,58.0458,63.696,4.22,93,100,2.02,RU,1970-01-01 00:00:01.682124458
188,Nanortalik,60.1432,-45.2371,1.15,78,0,1.11,GL,1970-01-01 00:00:01.682124458
189,Hasaki,35.7333,140.8333,15.16,50,100,9.44,JP,1970-01-01 00:00:01.682124459
190,Opuwo,-18.0607,13.84,15.78,92,100,2.18,,1970-01-01 00:00:01.682124459
191,Tasiilaq,65.6145,-37.6368,-1.91,89,84,2.4,GL,1970-01-01 00:00:01.682124460
192,Amambai,-23.1042,-55.2258,13.32,92,0,3.06,BR,1970-01-01 00:00:01.682124461
193,Boulsa,12.6675,-0.5758,31.6,13,12,1.98,BF,1970-01-01 00:00:01.682124461
194,Bredasdorp,-34.5322,20.0403,12.45,65,100,0.65,ZA,1970-01-01 00:00:01.682124462
195,Ziyang,29.2497,117.8547,17.79,84,100,2.74,CN,1970-01-01 00:00:01.682124463
196,Purna,19.1833,77.05,28.21,32,2,2.64,IN,1970-01-01 00:00:01.682124463
197,Avarua,-21.2078,-159.775,25.03,83,100,3.09,CK,1970-01-01 00:00:01.682124464
198,Sitka,57.0531,-135.33,11.94,47,100,4.63,US,1970-01-01 00:00:01.682124465
199,Yerbogachen,61.2767,108.0108,-4.18,88,95,2.83,RU,1970-01-01 00:00:01.682124466
200,Zhuhai,22.2769,113.5678,24.92,88,40,7.2,CN,1970-01-01 00:00:01.682124466
201,Buguruslan,53.6554,52.442,9.12,76,100,3.17,RU,1970-01-01 00:00:01.682124467
202,Pak Chong,14.708,101.4161,30.45,55,1,1.61,TH,1970-01-01 00:00:01.682124467
203,Vestmannaeyjar,63.4427,-20.2734,5.45,89,100,10.81,IS,1970-01-01 00:00:01.682124468
204,Trairi,-3.2778,-39.2689,25.15,82,38,3.5,BR,1970-01-01 00:00:01.682124238
205,Puerto Del Rosario,28.5004,-13.8627,18.86,77,0,1.54,ES,1970-01-01 00:00:01.682124469
206,Deputatskiy,69.3,139.9,-9.69,90,100,1.74,RU,1970-01-01 00:00:01.682124469
207,Mar Del Plata,-38.0023,-57.5575,16.64,74,0,5.14,AR,1970-01-01 00:00:01.682124470
208,Touros,-5.1989,-35.4608,26.09,75,100,5.06,BR,1970-01-01 00:00:01.682124470
209,Kununurra,-15.7667,128.7333,27.99,42,94,5.66,AU,1970-01-01 00:00:01.682124471
210,Ulundi,-28.3352,31.4162,16.23,76,98,0.48,ZA,1970-01-01 00:00:01.682124471
211,Victoria,22.2855,114.1577,24.98,88,100,8.49,HK,1970-01-01 00:00:01.682124173
212,Kiruna,67.8557,20.2251,-3.49,93,100,5.14,SE,1970-01-01 00:00:01.682124472
213,Berlevag,70.8578,29.0864,-3.03,86,100,12.86,NO,1970-01-01 00:00:01.682124473
214,Tubmanburg,6.8708,-10.8172,24.76,89,71,0.49,LR,1970-01-01 00:00:01.682124473
215,Vila Velha,-20.3297,-40.2925,22.75,83,100,1.54,BR,1970-01-01 00:00:01.682124474
216,Lorengau,-2.0226,147.2712,29.89,69,28,2.13,PG,1970-01-01 00:00:01.682124475
217,Dodge City,37.7528,-100.0171,16.14,14,0,6.17,US,1970-01-01 00:00:01.682124214
218,Puerto Ayora,-0.7393,-90.3518,25.86,96,21,2.56,EC,1970-01-01 00:00:01.682124476
219,Tagusao,9.1924,117.8141,30.1,64,12,2.39,PH,1970-01-01 00:00:01.682124476
220,Portsmouth,50.799,-1.0913,5.79,93,100,1.87,GB,1970-01-01 00:00:01.682124477
221,Katsuura,35.1333,140.3,11.47,73,100,8.03,JP,1970-01-01 00:00:01.682124477
222,Shakawe,-18.3667,21.85,19.71,57,98,1.13,BW,1970-01-01 00:00:01.682124478
223,Chumikan,54.7183,135.315,0.94,86,100,1.52,RU,1970-01-01 00:00:01.682124479
224,Yumen,40.2833,97.2,4.94,65,100,7.19,CN,1970-01-01 00:00:01.682124480
225,Tiksi,71.6872,128.8694,-14.92,89,94,1.29,RU,1970-01-01 00:00:01.682124481
226,Kavaratti,10.5669,72.642,28.92,70,8,3.8,IN,1970-01-01 00:00:01.682124482
227,Rundu,-17.9333,19.7667,18.82,75,100,1.81,,1970-01-01 00:00:01.682124482
228,Port Shepstone,-30.7414,30.455,16.91,63,100,2.25,ZA,1970-01-01 00:00:01.682124484
229,Tavda,58.0425,65.2726,4.49,91,100,1.77,RU,1970-01-01 00:00:01.682124484
230,Cherskiy,68.75,161.3,-0.59,91,10,0.95,RU,1970-01-01 00:00:01.682124485
231,Pitimbu,-7.4706,-34.8086,26.33,76,100,5.0,BR,1970-01-01 00:00:01.682124485
232,Nortelandia,-14.4547,-56.8028,21.4,88,2,0.61,BR,1970-01-01 00:00:01.682124486
233,Bambanglipuro,-7.95,110.2833,27.72,78,39,3.16,ID,1970-01-01 00:00:01.682124486
234,Saskylakh,71.9167,114.0833,-14.7,94,100,2.75,RU,1970-01-01 00:00:01.682124487
235,Cap-Chat,49.1001,-66.6821,3.0,87,99,2.06,CA,1970-01-01 00:00:01.682124487
236,Matara,5.9485,80.5353,26.42,88,84,2.23,LK,1970-01-01 00:00:01.682124488
237,Sinnar,13.5691,33.5672,29.9,12,5,5.48,SD,1970-01-01 00:00:01.682124489
238,Rawson,-43.3002,-65.1023,11.85,67,0,7.1,AR,1970-01-01 00:00:01.682124489
239,Barra Patuca,15.8,-84.2833,26.62,73,44,5.87,HN,1970-01-01 00:00:01.682124490
240,Sydney,-33.8679,151.2073,22.09,78,75,6.69,AU,1970-01-01 00:00:01.682124409
241,Kodiak,57.79,-152.4072,11.73,35,0,4.12,US,1970-01-01 00:00:01.682124491
242,Lompoc,34.6391,-120.4579,30.08,69,0,15.2,US,1970-01-01 00:00:01.682124492
243,Bereda,43.2686,-7.5406,7.3,100,88,1.52,ES,1970-01-01 00:00:01.682124492
244,Harrismith,-28.2728,29.1295,5.59,66,67,1.86,ZA,1970-01-01 00:00:01.682124493
245,Nhulunbuy,-12.2333,136.7667,25.34,88,75,5.14,AU,1970-01-01 00:00:01.682124493
246,Barda,40.3744,47.1267,13.52,80,0,2.89,AZ,1970-01-01 00:00:01.682124494
247,Lipari,38.4674,14.954,13.51,82,6,2.84,IT,1970-01-01 00:00:01.682124495
248,Vila,42.0304,-8.1588,4.49,100,24,2.01,PT,1970-01-01 00:00:01.682124495
249,San Cristobal,7.7669,-72.225,23.1,82,100,1.08,VE,1970-01-01 00:00:01.682124496
250,Ostrovnoy,68.0531,39.5131,-2.94,97,100,4.03,RU,1970-01-01 00:00:01.682124496
251,Naze,28.3667,129.4833,21.51,87,29,9.26,JP,1970-01-01 00:00:01.682124497
252,Sambava,-14.2667,50.1667,24.26,90,45,3.4,MG,1970-01-01 00:00:01.682124498
253,Tamworth,52.634,-1.6959,8.18,89,98,2.43,GB,1970-01-01 00:00:01.682124498
254,Vung Tau,10.346,107.0843,29.03,79,87,4.11,VN,1970-01-01 00:00:01.682124499
255,Dudinka,69.4058,86.1778,-5.21,82,100,7.77,RU,1970-01-01 00:00:01.682124499
256,Nosy Varika,-20.5833,48.5333,23.35,92,16,2.31,MG,1970-01-01 00:00:01.682124500
257,Sao Filipe,14.8961,-24.4956,22.75,74,4,2.83,CV,1970-01-01 00:00:01.682124500
258,Tuburan,6.6439,122.2736,30.05,69,96,1.51,PH,1970-01-01 00:00:01.682124501
259,Giresun,40.5,38.5,-2.25,88,5,2.98,TR,1970-01-01 00:00:01.682124501
260,Clyde River,70.4692,-68.5914,-9.87,85,75,2.06,CA,1970-01-01 00:00:01.682124502
261,Abaete,-19.16,-45.4458,19.27,83,100,2.84,BR,1970-01-01 00:00:01.682124502
262,Monterey,36.2505,-121.2516,22.32,37,7,5.52,US,1970-01-01 00:00:01.682124503
263,Arvika,59.6553,12.5852,4.34,76,26,1.32,SE,1970-01-01 00:00:01.682124503
264,Mudon,16.2578,97.7164,28.89,68,30,1.55,MM,1970-01-01 00:00:01.682124504
265,Taylorville,39.5489,-89.2945,17.1,36,0,3.6,US,1970-01-01 00:00:01.682124505
266,Nenjiang,49.1833,125.2167,4.21,31,11,6.56,CN,1970-01-01 00:00:01.682124505
267,Miles City,46.4083,-105.8406,-0.46,74,100,6.17,US,1970-01-01 00:00:01.682124284
268,Codrington,-38.2667,141.9667,18.26,59,25,2.22,AU,1970-01-01 00:00:01.682124507
269,Nikolskoye,59.7035,30.7861,7.94,88,100,1.74,RU,1970-01-01 00:00:01.682124507
270,Khatanga,71.9667,102.5,-17.6,89,11,1.87,RU,1970-01-01 00:00:01.682124508
271,Mitu,1.1983,-70.1733,21.55,96,66,0.9,CO,1970-01-01 00:00:01.682124508
272,Entre Rios,-11.9419,-38.0844,23.04,91,100,1.4,BR,1970-01-01 00:00:01.682124509
273,Leningradskiy,69.3833,178.4167,-1.77,84,13,3.96,RU,1970-01-01 00:00:01.682124509
274,General Pico,-35.6566,-63.7568,13.95,61,0,2.35,AR,1970-01-01 00:00:01.682124510
275,Barrhead,55.7992,-4.3929,7.52,67,100,3.6,GB,1970-01-01 00:00:01.682124510
276,Nizwa,22.9333,57.5333,23.63,66,29,1.47,OM,1970-01-01 00:00:01.682124511
277,Anastacio,-20.4836,-55.8069,17.98,83,0,2.34,BR,1970-01-01 00:00:01.682124511
278,Chuy,-33.6971,-53.4616,16.62,83,100,4.24,UY,1970-01-01 00:00:01.682124512
279,San Matias,-16.3667,-58.4,20.55,70,1,1.19,BO,1970-01-01 00:00:01.682124512
280,Khani,41.9563,42.9566,3.76,86,13,2.07,GE,1970-01-01 00:00:01.682124513
281,Port Moresby,-9.4431,147.1797,29.68,70,75,1.54,PG,1970-01-01 00:00:01.682124514
282,Muros,42.7762,-9.0603,11.72,90,55,4.73,ES,1970-01-01 00:00:01.682124515
283,Glenwood Springs,39.5505,-107.3248,6.51,89,100,6.69,US,1970-01-01 00:00:01.682124515
284,Biloela,-24.4167,150.5,26.49,44,0,7.14,AU,1970-01-01 00:00:01.682124516
285,Paragominas,-2.9667,-47.4833,23.21,92,6,1.31,BR,1970-01-01 00:00:01.682124342
286,Soyo,-6.1349,12.3689,26.15,85,100,2.65,AO,1970-01-01 00:00:01.682124517
287,Omsukchan,62.5333,155.8,-3.78,79,100,1.79,RU,1970-01-01 00:00:01.682124518
288,Coihaique,-45.5752,-72.0662,9.34,81,0,0.0,CL,1970-01-01 00:00:01.682124518
289,Sur,22.5667,59.5289,27.74,64,7,3.7,OM,1970-01-01 00:00:01.682124519
290,Talcahuano,-36.7167,-73.1167,13.82,94,0,2.57,CL,1970-01-01 00:00:01.682124519
291,Lusambo,-4.9667,23.45,20.65,99,100,0.82,CD,1970-01-01 00:00:01.682124520
292,Bitung,1.4451,125.1824,30.47,73,25,0.5,ID,1970-01-01 00:00:01.682124520
293,Beyneu,45.3167,55.2,18.06,16,99,9.37,KZ,1970-01-01 00:00:01.682124521
294,Rio Grande,-32.035,-52.0986,17.06,77,100,6.7,BR,1970-01-01 00:00:01.682124521
295,Roma,43.2128,-75.4557,23.08,38,75,5.14,US,1970-01-01 00:00:01.682124522
296,Aluksne,57.4167,27.05,6.65,76,25,0.86,LV,1970-01-01 00:00:01.682124522
297,Natal,-5.795,-35.2094,26.12,78,20,4.12,BR,1970-01-01 00:00:01.682124516
298,Mamallapuram,12.6264,80.1722,30.03,83,13,4.01,IN,1970-01-01 00:00:01.682124523
299,Srednekolymsk,67.45,153.6833,-0.15,96,98,0.5,RU,1970-01-01 00:00:01.682124524
300,Kaitangata,-46.2817,169.8464,18.85,65,89,2.47,NZ,1970-01-01 00:00:01.682124525
301,Port Elizabeth,-33.918,25.5701,15.16,80,0,3.09,ZA,1970-01-01 00:00:01.682124525
302,Lagos,6.5833,3.75,28.18,88,84,2.13,NG,1970-01-01 00:00:01.682124322
303,Tupanatinga,-8.7533,-37.3397,20.18,85,40,3.93,BR,1970-01-01 00:00:01.682124526
304,Asfi,32.2994,-9.2372,16.05,78,82,2.25,MA,1970-01-01 00:00:01.682124527
305,Carsamba,41.1989,36.7219,10.86,93,40,7.2,TR,1970-01-01 00:00:01.682124527
306,Solnechnyy,50.7214,136.6319,0.94,91,100,4.73,RU,1970-01-01 00:00:01.682124528
307,Jachymov,50.3585,12.9347,7.17,75,0,1.54,CZ,1970-01-01 00:00:01.682124528
308,Ulaanbaatar,47.9077,106.8832,-1.93,43,40,0.0,MN,1970-01-01 00:00:01.682124411
309,Lagunillas,10.1301,-71.2595,27.67,74,100,3.87,VE,1970-01-01 00:00:01.682124529
310,Whitehorse,60.7161,-135.0538,8.43,31,40,1.03,CA,1970-01-01 00:00:01.682124457
311,Yingcheng,30.95,113.55,8.52,73,100,8.58,CN,1970-01-01 00:00:01.682124530
312,Kaeo,-35.1,173.7833,21.85,97,100,3.83,NZ,1970-01-01 00:00:01.682124531
313,Antalaha,-14.9003,50.2788,23.58,87,6,2.33,MG,1970-01-01 00:00:01.682124531
314,Riverton,40.5219,-111.9391,7.27,87,100,2.68,US,1970-01-01 00:00:01.682124532
315,Kautokeino,69.0125,23.0412,-4.42,81,98,3.88,NO,1970-01-01 00:00:01.682124532
316,Fortuna,40.5982,-124.1573,16.63,80,100,0.89,US,1970-01-01 00:00:01.682124533
317,Iberia,29.9502,-91.7507,24.04,68,0,3.09,US,1970-01-01 00:00:01.682124533
318,Darhan,49.4867,105.9228,0.1,28,100,2.06,MN,1970-01-01 00:00:01.682124534
319,Colon,9.3592,-79.9014,25.38,81,100,2.53,PA,1970-01-01 00:00:01.682124438
320,Mount Isa,-20.7333,139.5,27.87,26,0,6.17,AU,1970-01-01 00:00:01.682124535
321,Faanui,-16.4833,-151.75,28.37,79,97,8.5,PF,1970-01-01 00:00:01.682124535
322,Charters Towers,-20.1,146.2667,26.38,48,100,7.0,AU,1970-01-01 00:00:01.682124536
323,Lannion,48.75,-3.4167,9.45,85,100,3.74,FR,1970-01-01 00:00:01.682124537
324,Khuzhir,53.1939,107.3397,-3.69,63,18,1.27,RU,1970-01-01 00:00:01.682124537
325,Melito Di Porto Salvo,37.9222,15.7714,14.52,82,6,2.57,IT,1970-01-01 00:00:01.682124538
326,Sao Joao Da Barra,-21.6403,-41.0511,23.05,74,75,3.42,BR,1970-01-01 00:00:01.682124538
327,Berdigestyakh,62.0989,126.6992,-2.5,84,100,2.91,RU,1970-01-01 00:00:01.682124539
328,Grindavik,63.8424,-22.4338,4.97,93,100,6.69,IS,1970-01-01 00:00:01.682124539
329,Kirundo,-2.5833,30.1667,15.15,97,100,1.2,BI,1970-01-01 00:00:01.682124540
330,Port Blair,11.6667,92.75,29.66,60,27,3.19,IN,1970-01-01 00:00:01.682124541
331,Harnosand,62.6323,17.9379,0.0,74,2,4.02,SE,1970-01-01 00:00:01.682124541
332,Hirara,24.8,125.2833,22.92,73,75,7.72,JP,1970-01-01 00:00:01.682124542
333,Fare,-16.7,-151.0167,28.14,78,36,8.16,PF,1970-01-01 00:00:01.682124542
334,Cidreira,-30.1811,-50.2056,20.36,72,5,6.99,BR,1970-01-01 00:00:01.682124543
335,Norman Wells,65.282,-126.8329,2.02,55,75,2.06,CA,1970-01-01 00:00:01.682124543
336,Saint Augustine,29.8947,-81.3145,23.39,86,40,5.14,US,1970-01-01 00:00:01.682124544
337,Trinidad,-14.8333,-64.9,21.38,76,6,1.05,BO,1970-01-01 00:00:01.682124545
338,Nemuro,43.3236,145.575,4.15,68,72,12.96,JP,1970-01-01 00:00:01.682124546
339,Port Hardy,50.6996,-127.4199,10.1,76,75,5.14,CA,1970-01-01 00:00:01.682124546
340,Muroto,33.2833,134.15,16.34,50,1,9.08,JP,1970-01-01 00:00:01.682124547
341,Artesia,33.8658,-118.0831,32.71,27,0,8.75,US,1970-01-01 00:00:01.682124547
342,Grenada,37.1882,-3.6067,15.38,72,0,3.09,ES,1970-01-01 00:00:01.682124548
343,Cam Ranh,11.9214,109.1591,29.98,74,0,1.54,VN,1970-01-01 00:00:01.682124549
344,High Level,58.5169,-117.136,11.06,30,75,2.57,CA,1970-01-01 00:00:01.682124550
345,Lagoa,39.05,-27.9833,15.71,92,29,10.81,PT,1970-01-01 00:00:01.682124551
346,Yulara,-25.2406,130.9889,20.09,33,0,7.23,AU,1970-01-01 00:00:01.682124551
347,Anloga,5.7947,0.8973,28.19,79,100,4.17,GH,1970-01-01 00:00:01.682124552
348,Puerto Colombia,10.9878,-74.9547,27.05,85,99,4.29,CO,1970-01-01 00:00:01.682124552
349,Bad Aibling,47.8638,12.0106,8.18,91,100,2.41,DE,1970-01-01 00:00:01.682124553
350,Sivaki,52.6333,126.75,2.96,36,100,5.6,RU,1970-01-01 00:00:01.682124554
351,Lhokseumawe,5.1801,97.1507,27.85,74,49,1.3,ID,1970-01-01 00:00:01.682124259
352,Fort Nelson,58.8053,-122.7002,8.86,39,100,4.47,CA,1970-01-01 00:00:01.682124555
353,North Bend,43.4065,-124.2243,14.4,94,100,3.09,US,1970-01-01 00:00:01.682124556
354,Saint-Pierre,-21.3393,55.4781,24.82,69,0,2.57,RE,1970-01-01 00:00:01.682124557
355,Sioux Lookout,50.1001,-91.917,-2.96,86,100,3.09,CA,1970-01-01 00:00:01.682124557
356,Saky,45.1356,33.6031,9.96,93,100,4.47,UA,1970-01-01 00:00:01.682124558
357,Torbay,47.6666,-52.7314,1.82,96,100,8.23,CA,1970-01-01 00:00:01.682124559
358,Coshocton,40.272,-81.8596,16.19,89,100,4.84,US,1970-01-01 00:00:01.682124559
359,Tacuarembo,-31.7333,-55.9833,14.23,53,100,1.34,UY,1970-01-01 00:00:01.682124561
360,Port Macquarie,-31.4333,152.9167,21.61,60,88,4.98,AU,1970-01-01 00:00:01.682124561
361,Haines Junction,60.7522,-137.5108,8.97,31,75,3.09,CA,1970-01-01 00:00:01.682124562
362,Karratha,-20.7377,116.8463,27.05,34,97,9.77,AU,1970-01-01 00:00:01.682124563
363,Visnes,59.3556,5.2242,7.34,87,4,0.0,NO,1970-01-01 00:00:01.682124563
364,Nelson Bay,-32.7167,152.15,21.67,87,7,2.24,AU,1970-01-01 00:00:01.682124564
365,Los Llanos De Aridane,28.6585,-17.9182,16.86,87,0,2.57,ES,1970-01-01 00:00:01.682124565
366,Palmer,42.1584,-72.3287,15.78,36,20,6.17,US,1970-01-01 00:00:01.682124292
367,Kenora,49.8167,-94.4337,-1.46,86,100,4.47,CA,1970-01-01 00:00:01.682124566
368,Okhotsk,59.3833,143.3,1.76,86,100,3.27,RU,1970-01-01 00:00:01.682124566
369,Danielskuil,-28.1887,23.5395,11.18,27,98,4.18,ZA,1970-01-01 00:00:01.682124567
370,Nishihara,26.1842,127.7558,23.6,78,75,10.29,JP,1970-01-01 00:00:01.682124568
371,Kruisfontein,-34.0033,24.7314,12.16,75,100,2.19,ZA,1970-01-01 00:00:01.682124569
372,Krapivinskiy,54.9992,86.8133,-0.36,82,45,1.57,RU,1970-01-01 00:00:01.682124569
373,Saint George,37.1041,-113.5841,25.24,18,0,7.2,US,1970-01-01 00:00:01.682124570
374,Padang,-0.9492,100.3543,24.03,82,83,1.04,ID,1970-01-01 00:00:01.682124571
375,Alofi,-19.0595,-169.9187,27.94,61,2,5.14,NU,1970-01-01 00:00:01.682124572
376,Te Anau,-45.4167,167.7167,16.82,60,66,1.26,NZ,1970-01-01 00:00:01.682124572
377,Sembe,1.6481,14.5806,21.32,98,100,1.28,CG,1970-01-01 00:00:01.682124573
378,Bathsheba,13.2167,-59.5167,26.34,83,20,3.6,BB,1970-01-01 00:00:01.682124574
379,Karwar,14.8,74.1333,24.7,79,5,3.01,IN,1970-01-01 00:00:01.682124574
380,Alamosa,37.4695,-105.87,8.99,29,75,6.17,US,1970-01-01 00:00:01.682124575
381,Airai,-8.9266,125.4092,20.33,64,96,1.58,TL,1970-01-01 00:00:01.682124576
382,Sibolga,1.7427,98.7792,27.05,80,9,0.47,ID,1970-01-01 00:00:01.682124576
383,Moju,-1.8839,-48.7689,23.46,97,85,1.11,BR,1970-01-01 00:00:01.682124577
384,Tucumcari,35.1717,-103.725,21.91,11,0,7.72,US,1970-01-01 00:00:01.682124525
385,Buzuluk,52.7807,52.2635,8.81,88,100,3.92,RU,1970-01-01 00:00:01.682124579
386,Salinas,36.6777,-121.6555,25.45,59,0,4.12,US,1970-01-01 00:00:01.682124580
387,Logrono,42.4667,-2.45,14.72,58,0,1.54,ES,1970-01-01 00:00:01.682124580
388,Buala,-8.145,159.5921,29.85,67,14,3.4,SB,1970-01-01 00:00:01.682124581
389,La Ronge,55.1001,-105.2842,8.12,23,100,4.12,CA,1970-01-01 00:00:01.682124581
390,Borba,-4.3878,-59.5939,24.07,94,84,0.21,BR,1970-01-01 00:00:01.682124582
391,Sinegorye,62.0788,150.477,-4.22,92,97,2.64,RU,1970-01-01 00:00:01.682124583
392,Puri,19.8,85.85,25.29,74,0,4.98,IN,1970-01-01 00:00:01.682124583
393,Brovst,57.0956,9.528,5.96,65,2,1.54,DK,1970-01-01 00:00:01.682124584
394,Okha,53.5739,142.9478,1.07,84,100,7.62,RU,1970-01-01 00:00:01.682124584
395,Goshen,41.5823,-85.8344,13.05,55,0,2.57,US,1970-01-01 00:00:01.682124585
396,Ponta Delgada,37.7333,-25.6667,16.4,88,75,7.2,PT,1970-01-01 00:00:01.682124547
397,Chaumont,48.1167,5.1333,6.87,86,100,5.56,FR,1970-01-01 00:00:01.682124586
398,Clinton,42.587,-82.9199,10.18,78,100,1.54,US,1970-01-01 00:00:01.682124300
399,Huilong,31.8111,121.655,14.82,58,77,5.91,CN,1970-01-01 00:00:01.682124587
400,Russkiy Aktash,55.0384,52.1214,8.93,75,100,2.88,RU,1970-01-01 00:00:01.682124587
401,Kilrush,52.6397,-9.4833,7.86,95,11,3.32,IE,1970-01-01 00:00:01.682124558
402,Vao,-22.6667,167.4833,25.7,77,20,3.79,NC,1970-01-01 00:00:01.682124588
403,Solhan,38.9634,41.0293,6.02,75,64,0.89,TR,1970-01-01 00:00:01.682124589
404,Nelidovo,56.2211,32.7774,7.18,85,100,1.63,RU,1970-01-01 00:00:01.682124589
405,Acapulco,16.8634,-99.8901,27.9,69,40,3.09,MX,1970-01-01 00:00:01.682124397
406,Canarana,-11.6847,-41.7689,20.35,90,28,3.5,BR,1970-01-01 00:00:01.682124591
407,Sao Sebastiao,-23.76,-45.4097,18.67,87,7,2.06,BR,1970-01-01 00:00:01.682124591
408,Penzance,50.1186,-5.5371,9.31,86,81,6.58,GB,1970-01-01 00:00:01.682124592
409,Marsa Matruh,31.3525,27.2453,16.11,77,0,2.57,EG,1970-01-01 00:00:01.682124593
410,Divnomorskoye,44.5011,38.1353,10.01,93,100,8.66,RU,1970-01-01 00:00:01.682124593
411,San Rafael,-34.6177,-68.3301,16.38,47,8,2.59,AR,1970-01-01 00:00:01.682124565
412,Casambalangan,18.3765,122.1274,27.82,78,80,0.85,PH,1970-01-01 00:00:01.682124594
413,Kiama,-34.6833,150.8667,23.1,67,71,0.89,AU,1970-01-01 00:00:01.682124595
414,Lethbridge,49.7,-112.8186,2.06,55,75,2.57,CA,1970-01-01 00:00:01.682124487
415,Martinho Campos,-19.3317,-45.2369,18.34,86,100,2.91,BR,1970-01-01 00:00:01.682124596
416,Mecca,21.4267,39.8261,29.17,40,54,1.31,SA,1970-01-01 00:00:01.682124596
417,Bac Lieu,9.285,105.7244,29.81,73,100,3.7,VN,1970-01-01 00:00:01.682124428
418,Constantine,36.365,6.6147,13.67,62,0,4.12,DZ,1970-01-01 00:00:01.682124597
419,Isangel,-19.55,169.2667,28.81,65,8,4.72,VU,1970-01-01 00:00:01.682124598
420,Qaqortoq,60.7167,-46.0333,1.25,72,11,1.44,GL,1970-01-01 00:00:01.682124598
421,Plettenberg Bay,-34.0527,23.3716,13.2,70,99,1.12,ZA,1970-01-01 00:00:01.682124599
422,Tual,-5.6667,132.75,28.41,78,100,6.0,ID,1970-01-01 00:00:01.682124600
423,Hualmay,-11.0964,-77.6139,23.5,80,61,4.76,PE,1970-01-01 00:00:01.682124600
424,Sal Rei,16.1833,-22.9167,21.47,77,24,5.67,CV,1970-01-01 00:00:01.682124601
425,Margate,51.3813,1.3862,6.5,90,87,2.1,GB,1970-01-01 00:00:01.682124514
426,Faya,18.3851,42.4509,13.29,62,3,1.29,SA,1970-01-01 00:00:01.682124602
427,Saint Anthony,45.0205,-93.218,2.36,80,100,6.17,US,1970-01-01 00:00:01.682124603
428,Cardston,49.2,-113.3019,1.16,64,100,2.06,CA,1970-01-01 00:00:01.682124604
429,Totness,5.8833,-56.3167,25.64,89,100,4.24,SR,1970-01-01 00:00:01.682124604
430,Saint-Paul,-21.0096,55.2707,25.06,75,0,1.87,RE,1970-01-01 00:00:01.682124605
431,Palu,-0.8917,119.8707,30.11,72,52,0.61,ID,1970-01-01 00:00:01.682124606
432,Egvekinot,66.3167,-179.1667,-1.35,85,14,0.41,RU,1970-01-01 00:00:01.682124606
433,Samarai,-10.6167,150.6667,28.93,69,43,3.8,PG,1970-01-01 00:00:01.682124607
434,Clovis,36.8252,-119.7029,26.94,36,40,3.6,US,1970-01-01 00:00:01.682124546
435,Sarkad,46.75,21.3833,7.75,76,23,2.19,HU,1970-01-01 00:00:01.682124609
436,Syracuse,37.0881,15.2792,10.77,86,2,4.07,IT,1970-01-01 00:00:01.682124611
437,Carndonagh,55.25,-7.2667,6.5,80,84,3.06,IE,1970-01-01 00:00:01.682124583
438,Boueni,-12.9025,45.0761,26.99,73,94,4.76,YT,1970-01-01 00:00:01.682124612
439,Nyanza,-2.3519,29.7509,13.5,95,100,1.71,RW,1970-01-01 00:00:01.682124613
440,Plouzane,48.3833,-4.6167,9.03,79,0,2.57,FR,1970-01-01 00:00:01.682124614
441,Moose Factory,51.2585,-80.6094,0.0,93,100,5.66,CA,1970-01-01 00:00:01.682124615
442,Kloulklubed,7.0419,134.2556,24.28,72,100,2.87,PW,1970-01-01 00:00:01.682124615
443,Mehamn,71.0357,27.8492,-3.05,80,100,8.75,NO,1970-01-01 00:00:01.682124616
444,Huarmey,-10.0681,-78.1522,24.55,80,51,4.36,PE,1970-01-01 00:00:01.682124617
445,America Dourada,-11.4553,-41.4361,21.66,83,100,4.69,BR,1970-01-01 00:00:01.682124617
446,Mikuni,36.2171,136.1519,13.95,44,49,9.15,JP,1970-01-01 00:00:01.682124618
447,Conceicao Do Araguaia,-8.2578,-49.2647,23.62,93,94,0.85,BR,1970-01-01 00:00:01.682124618
448,Shagonar,51.5333,92.8,-0.15,55,8,0.75,RU,1970-01-01 00:00:01.682124619
449,Uvinza,-5.1036,30.3911,18.87,92,100,0.21,TZ,1970-01-01 00:00:01.682124620
450,Meiganga,6.5167,14.3,18.08,97,100,1.33,CM,1970-01-01 00:00:01.682124621
451,Banikoara,11.2985,2.4386,29.92,44,36,2.57,BJ,1970-01-01 00:00:01.682124621
452,Havoysund,70.9963,24.6622,-1.87,69,100,9.58,NO,1970-01-01 00:00:01.682124622
453,Gigmoto,13.7796,124.39,29.64,71,52,2.1,PH,1970-01-01 00:00:01.682124623
454,Rio Gallegos,-51.6226,-69.2181,6.03,52,0,8.23,AR,1970-01-01 00:00:01.682124623
455,Dunedin,-45.8742,170.5036,17.26,54,10,1.75,NZ,1970-01-01 00:00:01.682124624
456,Abha,18.2164,42.5053,13.14,88,0,0.0,SA,1970-01-01 00:00:01.682124625
457,Nakusp,50.2499,-117.8023,12.19,35,55,0.51,CA,1970-01-01 00:00:01.682124337
458,Melfi,40.9965,15.6514,7.5,91,31,0.88,IT,1970-01-01 00:00:01.682124626
459,Saint-Joseph,-21.3667,55.6167,24.21,79,1,1.84,RE,1970-01-01 00:00:01.682124627
460,Takoradi,4.8845,-1.7554,27.12,86,100,3.21,GH,1970-01-01 00:00:01.682124628
461,Homer,59.6425,-151.5483,12.24,45,0,3.09,US,1970-01-01 00:00:01.682124628
462,Saryagash,41.4511,69.1701,8.98,44,8,2.01,KZ,1970-01-01 00:00:01.682124629
463,Kibondo,-3.5864,30.7203,15.69,95,93,1.34,TZ,1970-01-01 00:00:01.682124630
464,Seymchan,62.8833,152.4333,-0.57,82,56,2.0,RU,1970-01-01 00:00:01.682124630
465,Vizinga,61.0749,50.1031,1.78,93,100,1.52,RU,1970-01-01 00:00:01.682124631
466,Ocampo,21.65,-101.5,23.44,16,100,5.22,MX,1970-01-01 00:00:01.682124632
467,Sola,-13.8833,167.55,27.9,76,31,6.38,VU,1970-01-01 00:00:01.682124633
468,Muravlenko,63.7898,74.523,-1.3,92,100,2.9,RU,1970-01-01 00:00:01.682124634
469,Awbari,26.5921,12.7805,23.14,15,50,0.27,LY,1970-01-01 00:00:01.682124635
470,Hispania,5.7993,-75.9072,20.37,97,100,1.31,CO,1970-01-01 00:00:01.682124636
471,Charlestown,-32.95,151.6667,21.03,86,88,2.89,AU,1970-01-01 00:00:01.682124570
472,Tessalit,20.1986,1.0114,25.04,9,95,4.02,ML,1970-01-01 00:00:01.682124637
473,Santa Cruz,-17.8,-63.1667,21.7,78,2,1.03,BO,1970-01-01 00:00:01.682124638
474,Guerrero Negro,27.9769,-114.0611,20.83,43,5,7.12,MX,1970-01-01 00:00:01.682124639
475,Cascais,38.6979,-9.4215,16.18,91,51,7.6,PT,1970-01-01 00:00:01.682124640
476,Bubaque,11.2833,-15.8333,25.56,70,96,9.16,GW,1970-01-01 00:00:01.682124640
477,Nakonde,-9.3421,32.745,14.86,96,100,2.49,ZM,1970-01-01 00:00:01.682124641
478,Kimbe,-5.5502,150.1429,32.82,56,39,0.9,PG,1970-01-01 00:00:01.682124642
479,Khanpur,28.6453,70.6567,23.45,16,0,3.66,PK,1970-01-01 00:00:01.682124643
480,Hovd,48.0056,91.6419,-1.85,30,11,1.16,MN,1970-01-01 00:00:01.682124643
481,Caravelas,-17.7125,-39.2481,23.47,82,100,5.99,BR,1970-01-01 00:00:01.682124644
482,Akranes,64.3218,-22.0749,5.03,74,92,5.88,IS,1970-01-01 00:00:01.682124644
483,Maniitsoq,65.4167,-52.9,0.62,84,100,2.6,GL,1970-01-01 00:00:01.682124645
484,Victorias,10.9,123.0778,29.55,70,45,1.98,PH,1970-01-01 00:00:01.682124646
485,Nabire,-3.3667,135.4833,29.73,68,99,0.93,ID,1970-01-01 00:00:01.682124559
486,Puerto Escondido,15.85,-97.0667,29.46,65,40,5.14,MX,1970-01-01 00:00:01.682124647
487,Jizan,17.3333,42.6667,29.52,58,35,3.57,SA,1970-01-01 00:00:01.682124648
488,Chokwe,-24.5333,32.9833,19.55,89,100,3.01,MZ,1970-01-01 00:00:01.682124649
489,Kemijarvi,66.7131,27.4306,1.38,98,100,2.65,FI,1970-01-01 00:00:01.682124649
490,Voznesenye,61.0106,35.4781,2.87,98,100,1.44,RU,1970-01-01 00:00:01.682124650
491,Pangody,65.85,74.4859,-1.35,96,100,2.71,RU,1970-01-01 00:00:01.682124650
492,Tilichiki,60.4667,166.1,-1.85,82,99,3.43,RU,1970-01-01 00:00:01.682124651
493,Alice Springs,-23.7,133.8833,20.75,37,0,6.69,AU,1970-01-01 00:00:01.682124651
494,Surt,31.2089,16.5887,23.67,41,100,3.95,LY,1970-01-01 00:00:01.682124652
495,Ak-Dovurak,51.1833,90.6,-1.48,48,10,0.96,RU,1970-01-01 00:00:01.682124652
496,Tazovskiy,67.4667,78.7,-0.13,98,100,4.44,RU,1970-01-01 00:00:01.682124653
497,Anadyr,64.75,177.4833,-6.72,86,0,2.0,RU,1970-01-01 00:00:01.682124653
498,Pemangkat,1.1667,108.9667,27.99,74,86,2.41,ID,1970-01-01 00:00:01.682124654
499,Salina Cruz,16.1667,-95.2,28.08,70,51,5.57,MX,1970-01-01 00:00:01.682124440
500,Ust-Katav,54.9369,58.1656,8.34,68,100,1.78,RU,1970-01-01 00:00:01.682124656
501,Maketu,-37.7667,176.45,20.98,100,100,7.94,NZ,1970-01-01 00:00:01.682124656
502,Kishtwar,33.3167,75.7667,5.15,70,32,2.87,IN,1970-01-01 00:00:01.682124657
503,Bilma,18.6853,12.9164,28.91,12,5,0.98,NE,1970-01-01 00:00:01.682124657
504,Kroya,-7.6331,109.2461,27.02,84,57,1.51,ID,1970-01-01 00:00:01.682124658
505,Imbituba,-28.24,-48.6703,18.29,83,42,2.89,BR,1970-01-01 00:00:01.682124418
506,Edmonds,47.8107,-122.3774,12.71,68,100,4.12,US,1970-01-01 00:00:01.682124659
507,Gushikawa,26.3544,127.8686,23.57,73,100,6.17,JP,1970-01-01 00:00:01.682124661
508,Scarborough,54.2797,-0.4044,7.76,92,100,2.68,GB,1970-01-01 00:00:01.682124394
509,Tigzirt,36.8886,4.1198,15.94,60,8,2.03,DZ,1970-01-01 00:00:01.682124662
510,Skala Fourkas,39.9998,23.3841,14.95,69,100,3.88,GR,1970-01-01 00:00:01.682124612
511,Abonnema,4.7084,6.7931,25.26,87,100,1.95,NG,1970-01-01 00:00:01.682124663
512,Monteagudo,-19.8167,-63.9833,14.25,97,0,0.3,BO,1970-01-01 00:00:01.682124664
513,Yar-Sale,66.8333,70.8333,-10.21,98,92,3.19,RU,1970-01-01 00:00:01.682124664
514,Ust-Nera,64.5667,143.2,-1.67,87,83,2.17,RU,1970-01-01 00:00:01.682124665
515,Petropavlovsk-Kamchatskiy,53.0452,158.6483,3.33,70,75,9.0,RU,1970-01-01 00:00:01.682124666
516,Vrangel,42.7297,133.0839,6.82,43,1,6.78,RU,1970-01-01 00:00:01.682124667
517,Ikon-Khalk,44.3051,41.9142,7.3,95,100,0.15,RU,1970-01-01 00:00:01.682124667
518,Tomatlan,19.9333,-105.25,26.71,53,63,2.45,MX,1970-01-01 00:00:01.682124669
519,Gat,31.61,34.7642,14.9,81,28,2.44,IL,1970-01-01 00:00:01.682124669
520,Launceston,-41.45,147.1667,17.56,76,20,8.75,AU,1970-01-01 00:00:01.682124669
521,Da Nang,16.0678,108.2208,27.99,69,0,2.57,VN,1970-01-01 00:00:01.682124670
522,Atar,20.5169,-13.0499,27.74,17,100,3.97,MR,1970-01-01 00:00:01.682124671
523,Iqaluit,63.7506,-68.5145,-1.15,92,100,6.71,CA,1970-01-01 00:00:01.682124672
524,Guayape,14.7167,-86.8333,26.63,40,100,2.03,HN,1970-01-01 00:00:01.682124673
525,Ketchikan,55.3422,-131.6461,11.26,54,75,6.69,US,1970-01-01 00:00:01.682124673
526,Shelburne,44.0787,-80.2041,7.44,87,100,1.63,CA,1970-01-01 00:00:01.682124674
527,Andilamena,-17.0167,48.5833,18.37,91,95,1.78,MG,1970-01-01 00:00:01.682124675
528,Sept-Iles,50.2001,-66.3821,2.81,92,40,1.54,CA,1970-01-01 00:00:01.682124518
529,Boa Vista,2.8197,-60.6733,26.99,78,40,2.57,BR,1970-01-01 00:00:01.682124676
530,Beringovskiy,63.05,179.3167,-1.48,74,2,0.76,RU,1970-01-01 00:00:01.682124677
531,Nizhniy Odes,63.6445,54.856,0.12,99,100,2.37,RU,1970-01-01 00:00:01.682124678
532,Griffith,41.5284,-87.4237,13.97,49,40,5.66,US,1970-01-01 00:00:01.682124678
533,Ystad,55.4297,13.8204,6.41,65,12,3.65,SE,1970-01-01 00:00:01.682124679
534,Komsomolskiy,40.4272,71.7189,11.4,50,65,4.12,UZ,1970-01-01 00:00:01.682124680
535,Flagstaff,35.1981,-111.6513,18.81,23,0,4.12,US,1970-01-01 00:00:01.682124523
536,Pangoa,-12.1167,-73.0,21.03,89,96,0.71,PE,1970-01-01 00:00:01.682124681
537,Saint-Denis,48.9167,2.3333,8.41,76,0,2.57,FR,1970-01-01 00:00:01.682124682
538,Northampton,40.8754,-75.2499,16.58,81,12,2.36,US,1970-01-01 00:00:01.682124683
539,Bone,51.9669,12.1396,11.05,69,0,3.39,DE,1970-01-01 00:00:01.682124683
540,San Rafael Del Sur,11.8485,-86.4384,32.54,76,100,2.82,NI,1970-01-01 00:00:01.682124684
541,Dingle,10.9995,122.6711,30.45,64,15,2.3,PH,1970-01-01 00:00:01.682124685
542,Channel-Port Aux Basques,47.5702,-59.1367,1.86,87,5,4.06,CA,1970-01-01 00:00:01.682124685
543,Ugleuralskiy,58.9534,57.5846,0.11,73,97,1.67,RU,1970-01-01 00:00:01.682124687
544,Mansehra,34.3333,73.2,10.84,65,95,2.97,PK,1970-01-01 00:00:01.682124687
545,Kinablangan,7.6947,126.5503,28.69,72,100,1.97,PH,1970-01-01 00:00:01.682124688
546,Chara,56.9064,118.2631,-6.23,69,93,1.31,RU,1970-01-01 00:00:01.682124689
547,Santa Rosalia,27.3167,-112.2833,25.74,22,0,2.99,MX,1970-01-01 00:00:01.682124689
548,Marzuq,14.4,46.4667,22.54,44,4,2.65,YE,1970-01-01 00:00:01.682124690
549,College,64.8569,-147.8028,5.97,46,100,1.54,US,1970-01-01 00:00:01.682124692
550,Yantal,56.8471,105.2542,-2.32,79,100,3.04,RU,1970-01-01 00:00:01.682124692
551,Quelimane,-17.8786,36.8883,23.97,88,0,7.2,MZ,1970-01-01 00:00:01.682124694
552,Ostersund,63.1792,14.6357,4.25,70,0,2.68,SE,1970-01-01 00:00:01.682124694
553,Angoche,-16.2325,39.9086,24.47,84,13,1.8,MZ,1970-01-01 00:00:01.682124695
554,Zhezkazgan,47.8043,67.7144,7.63,41,100,3.1,KZ,1970-01-01 00:00:01.682124696
555,Posse,-14.0931,-46.3694,21.28,83,20,2.88,BR,1970-01-01 00:00:01.682124696
556,Timra,62.487,17.3257,-0.18,80,0,2.06,SE,1970-01-01 00:00:01.682124697
557,Bartica,6.4,-58.6167,25.18,98,100,0.82,GY,1970-01-01 00:00:01.682124697
558,Weligama,5.9667,80.4167,26.71,86,84,2.03,LK,1970-01-01 00:00:01.682124698
559,Vryburg,-26.9566,24.7284,12.26,36,0,1.73,ZA,1970-01-01 00:00:01.682124698
560,Myski,53.709,87.8014,-1.29,79,88,1.33,RU,1970-01-01 00:00:01.682124699
561,Santiago Del Estero,-27.7951,-64.2615,21.75,52,100,3.7,AR,1970-01-01 00:00:01.682124528
562,Conceicao Da Barra,-18.5933,-39.7322,22.42,75,98,4.14,BR,1970-01-01 00:00:01.682124700
563,Saint-Philippe,-21.3585,55.7679,24.77,81,2,3.68,RE,1970-01-01 00:00:01.682124701
564,Birao,10.2849,22.7882,26.65,13,43,1.09,CF,1970-01-01 00:00:01.682124701
565,Port-Cartier,50.0334,-66.8654,2.64,96,67,1.88,CA,1970-01-01 00:00:01.682124702
566,Spornoye,50.8448,37.2913,5.81,91,100,4.92,RU,1970-01-01 00:00:01.682124702
567,Sychevka,55.8252,34.2736,7.2,82,100,2.24,RU,1970-01-01 00:00:01.682124703
568,Junagarh,19.8667,82.9333,27.19,43,74,1.01,IN,1970-01-01 00:00:01.682124703
569,Sabang,5.8933,95.3214,28.41,75,19,1.11,ID,1970-01-01 00:00:01.682124704
570,Casimiro Castillo,19.6,-104.4333,29.03,43,100,2.01,MX,1970-01-01 00:00:01.682124705
571,Hat Yai,7.0084,100.4767,30.54,94,20,0.0,TH,1970-01-01 00:00:01.682124705
572,Cedar City,37.6775,-113.0619,17.54,32,75,6.69,US,1970-01-01 00:00:01.682124706
573,Arlit,18.7369,7.3853,28.44,13,0,4.25,NE,1970-01-01 00:00:01.682124706
574,Labytnangi,66.6572,66.4183,-10.7,93,100,1.09,RU,1970-01-01 00:00:01.682124707
575,Usinsk,65.9939,57.5281,-1.71,98,100,5.51,RU,1970-01-01 00:00:01.682124707
576,Tambopata,-12.7333,-69.1833,22.61,77,95,0.56,PE,1970-01-01 00:00:01.682124708
577,Honiara,-9.4333,159.95,30.59,67,28,3.15,SB,1970-01-01 00:00:01.682124709
578,Cabras,39.93,8.5314,11.45,79,8,2.87,IT,1970-01-01 00:00:01.682124709
579,Chabahar,25.2919,60.643,25.67,60,0,3.36,IR,1970-01-01 00:00:01.682124710
580,Ahipara,-35.1667,173.1667,20.09,95,100,3.01,NZ,1970-01-01 00:00:01.682124710
581,Escanaba,45.7453,-87.0646,6.65,81,100,3.6,US,1970-01-01 00:00:01.682124711
582,Akdepe,42.0551,59.3788,11.05,20,100,6.84,TM,1970-01-01 00:00:01.682124711
583,Lavrentiya,65.5833,-171.0,-0.31,75,43,0.82,RU,1970-01-01 00:00:01.682124712
584,Tromso,69.6496,18.957,-1.99,74,75,4.12,NO,1970-01-01 00:00:01.682124617
585,Negara,-8.3151,114.6025,27.01,80,94,3.08,ID,1970-01-01 00:00:01.682124713
586,Sawtell,-30.3833,153.1,19.55,82,75,5.66,AU,1970-01-01 00:00:01.682124714
587,Jaicos,-7.3592,-41.1378,25.1,64,66,2.31,BR,1970-01-01 00:00:01.682124715
588,Podgornoye,51.735,39.1496,6.12,93,75,3.0,RU,1970-01-01 00:00:01.682124715
589,Toamasina,-18.1667,49.3833,23.0,100,40,1.03,MG,1970-01-01 00:00:01.682124716
590,Kieta,-6.2167,155.6333,29.82,71,18,3.05,PG,1970-01-01 00:00:01.682124716
591,Talara,-4.5772,-81.2719,27.42,83,40,3.09,PE,1970-01-01 00:00:01.682124717
592,Were Ilu,10.6,39.4333,11.48,83,81,1.74,ET,1970-01-01 00:00:01.682124717
593,Luena,-11.7833,19.9167,16.81,98,100,1.44,AO,1970-01-01 00:00:01.682124718
594,Ihosy,-22.4,46.1167,17.88,87,100,0.99,MG,1970-01-01 00:00:01.682124719
595,Sistranda,63.7256,8.834,3.98,76,6,2.62,NO,1970-01-01 00:00:01.682124719
